[
  {
    "id": 1,
    "name": "Магазин на Зеленоградской",
    "address": "ул. Зеленоградская, 12А",
    "status": "Открыто до 21:00",
    "distance": "0.8 км от вас",
    "iconColor": "orange",
    "phone": "+7 (495) 123-45-67",
    "hours": "Пн-Вс: 09:00 - 21:00",
    "features": ["Парковка", "Ветеринар", "Грумер", "Доставка"],
    "coords": { "lat": 55.7558, "lng": 37.6173 },
    "closed": false
  },
  {
    "id": 2,
    "name": "Магазин в Ашукино",
    "address": "пос. Ашукино, ул. Центральная, 25",
    "status": "Открыто до 20:00",
    "distance": "3.2 км от вас",
    "iconColor": "green",
    "phone": "+7 (495) 234-56-78",
    "hours": "Пн-Вс: 09:00 - 20:00",
    "features": ["Парковка", "Консультации"],
    "coords": { "lat": 56.0194, "lng": 37.9856 },
    "closed": false
  },
  {
    "id": 3,
    "name": "Магазин в Софрино",
    "address": "пос. Софрино, ул. Московская, 8",
    "status": "Открыто до 22:00",
    "distance": "5.1 км от вас",
    "iconColor": "purple",
    "phone": "+7 (495) 345-67-89",
    "hours": "Пн-Вс: 08:00 - 22:00",
    "features": ["Круглосуточная парковка", "Ветеринар", "Груминг-салон", "Доставка"],
    "coords": { "lat": 56.1478, "lng": 37.9667 },
    "closed": false
  },
  {
    "id": 4,
    "name": "Магазин в Заветах Ильича",
    "address": "пос. Заветы Ильича, ул. Ленина, 14",
    "status": "Закрыто до 09:00",
    "distance": "7.8 км от вас",
    "iconColor": "blue",
    "phone": "+7 (495) 456-78-90",
    "hours": "Пн-Вс: 09:00 - 20:00",
    "features": ["Парковка", "Wi-Fi"],
    "coords": { "lat": 56.0231, "lng": 38.0144 },
    "closed": true
  },
  {
    "id": 5,
    "name": "Магазин в Клязьме",
    "address": "пос. Клязьма, ул. Мира, 33",
    "status": "Открыто до 19:30",
    "distance": "4.6 км от вас",
    "iconColor": "pink",
    "phone": "+7 (495) 567-89-01",
    "hours": "Пн-Пт: 10:00 - 19:30, Сб-Вс: 10:00 - 18:00",
    "features": ["Парковка", "Консультации", "Самовывоз"],
    "coords": { "lat": 56.0333, "lng": 37.8833 },
    "closed": false
  },
  {
    "id": 6,
    "name": "Магазин в Зверосовхозе",
    "address": "пос. Зверосовхоз, ул. Советская, 7",
    "status": "Открыто до 21:30",
    "distance": "6.3 км от вас",
    "iconColor": "indigo",
    "phone": "+7 (495) 678-90-12",
    "hours": "Пн-Вс: 09:00 - 21:30",
    "features": ["Большая парковка", "Ветеринарная клиника", "Доставка 24/7"],
    "coords": { "lat": 56.0778, "lng": 37.9500 },
    "closed": false
  }
]
